{"schools": [
	{"name":"Flowers High School", "long":"78.230453", "lat":"12.824705", "strengths":{"6":"30", "7":"40", "8":"33", "9":"22", "10":"12"}},
	{"name":"SRM Public School", "long":"78.229638 ", "lat":"12.842907", "strengths":{"6":"52", "7":"23", "8":"43", "9":"12", "10":"44"}},
	{"name":"Hogwarts School of Arts", "long":"78.268133", "lat":"12.848137", "strengths":{"6":"12", "7":"39", "8":"7", "9":"22", "10":"31"}},
	{"name":"Cambridge Public School", "long":"78.266030 ", "lat":"12.828052", "strengths":{"6":"33", "7":"12", "8":"51", "9":"33", "10":"54"}},
	{"name":"Freedom School", "long":"78.294183", "lat":"12.827215", "strengths":{"6":"12", "7":"33", "8":"23", "9":"57", "10":"31"}},
	{"name":"The Savior Township school", "long":"78.265816 ", "lat":"12.806920", "strengths":{"6":"41", "7":"34", "8":"27", "9":"12", "10":"9"}},
	{"name":"The Children's Education Society Primary School", "long":"78.241869", "lat":"12.795956", "strengths":{"6":"11", "7":"19", "8":"31", "9":"22", "10":"13"}},
	{"name":"Save the King school", "long":"78.226076 ", "lat":"12.804158", "strengths":{"6":"55", "7":"32", "8":"61", "9":"22", "10":"41"}}
]}