schools = [
	
	{"name":"Flowers High School", "long":"78.335681", "lat":"12.750415", "strengths":{"6":"30", "7":"40", "8":"33", "9":"22", "10":"12"}},
	{"name":"SRM Public School", "long":"78.338543", "lat":"12.745407", "strengths":{"6":"52", "7":"23", "8":"43", "9":"12", "10":"44"}},
	{"name":"Hogwarts School of Arts", "long":"78.317507", "lat":"12.746430", "strengths":{"6":"12", "7":"39", "8":"7", "9":"22", "10":"31"}},
	{"name":"Cambridge Public School", "long":"78.3156469", "lat":"12.7411623", "strengths":{"6":"33", "7":"12", "8":"51", "9":"33", "10":"54"}},
	{"name":"Freedom School", "long":"78.234453", "lat":"12.827215", "strengths":{"6":"12", "7":"33", "8":"23", "9":"57", "10":"31"}},
	{"name":"The Savior Township school", "long":"78.203980", "lat":"12.823129", "strengths":{"6":"41", "7":"34", "8":"27", "9":"12", "10":"9"}},
	{"name":"The Children's Education Society Primary School", "long":"78.236453", "lat":"12.795956", "strengths":{"6":"11", "7":"19", "8":"31", "9":"22", "10":"13"}},
	{"name":"Save the King school", "long":"78.251432", "lat":"12.770809", "strengths":{"6":"55", "7":"32", "8":"61", "9":"22", "10":"41"}}
]
